City_ID,City,Lat,Lng,Max Temp,Humidity,Cloudiness,Wind Speed,Country,Date
0,st. john's,47.5614705,-52.7126162,14.66,91,100,3.09,CA,2024-09-30
1,kapuskasing,49.416667,-82.433333,20.0,40,20,5.66,CA,2024-09-30
2,iqaluit,63.74944,-68.521857,7.97,70,75,2.57,CA,2024-09-30
3,afif,23.9023697,42.9150847,27.77,15,2,4.62,SA,2024-09-30
4,sete,43.4014434,3.6959771,18.92,79,48,2.83,FR,2024-09-30
5,jayapura,-2.5387539,140.7037389,27.34,89,42,1.96,ID,2024-09-30
6,tocopilla,-22.0887189,-70.1960657,20.1,60,45,3.85,CL,2024-09-30
7,waitangi,-35.2704653,174.0804593,13.64,93,100,4.73,NZ,2024-09-30
8,nolinsk,57.5579577,49.9294668,8.27,88,100,2.29,RU,2024-09-30
9,bredasdorp,-34.533055,20.042778,8.71,72,33,3.62,ZA,2024-09-30
10,kudahuvadhoo,2.6704688,72.89060791131976,28.16,76,99,5.24,MV,2024-09-30
11,grytviken,-54.2806481,-36.5098,-1.1,74,18,7.84,GS,2024-09-30
12,afaahiti,-17.7390418,-149.28997267755395,25.54,82,22,7.0,FR,2024-09-30
13,olonkinbyen,70.9224474,-8.7159894,-1.25,64,100,7.93,NO,2024-09-30
14,port-aux-francais,-49.3497607,70.2199565,2.72,97,100,20.62,FR,2024-09-30
15,mount isa,-20.7289898,139.4931522,22.92,31,0,4.63,AU,2024-09-30
16,albu kamal,33.992409,44.344556,30.1,17,0,2.49,IQ,2024-09-30
17,rio gallegos,-51.64607595,-69.26322885452636,7.04,42,20,16.46,AR,2024-09-30
18,puerto aysen,-45.4068167,-72.6976787,5.16,93,92,1.63,CL,2024-09-30
19,yellowknife,62.4540807,-114.377385,5.61,84,75,8.23,CA,2024-09-30
20,vangaindrano,-23.3503159,47.6043136,21.31,90,30,3.96,MG,2024-09-30
21,cadale,2.7616074,46.3220127,25.76,83,100,5.09,SO,2024-09-30
22,dudinka,69.406067,86.175072,3.56,97,100,2.72,RU,2024-09-30
23,matamey,13.1937708,8.9070558,32.81,33,23,3.07,NE,2024-09-30
24,thunder bay,48.406414,-89.259796,22.06,56,20,5.66,CA,2024-09-30
25,al kharijah,15.35954,44.21674,20.81,39,73,3.92,YE,2024-09-30
26,whitehorse,60.721571,-135.054932,3.94,75,40,1.03,CA,2024-09-30
27,leticia,-4.2129211,-69.9425963,29.99,70,20,1.54,CO,2024-09-30
28,vazante,-17.9896107,-46.9003899,33.09,22,9,2.87,BR,2024-09-30
29,aasiaat,68.709588,-52.8512976,2.38,89,100,1.98,GL,2024-09-30
30,ancud,-41.8682162,-73.8287225,8.21,54,58,5.85,CL,2024-09-30
31,nedroma,35.0107602,-1.74805,22.64,81,7,2.32,DZ,2024-09-30
32,forest grove,45.5197452,-123.1114405,21.22,41,0,2.68,US,2024-09-30
33,isafjordur,66.0726918,-23.1193541,0.7,81,100,5.77,IS,2024-09-30
34,jamestown,-15.9277296,-5.7160872,18.96,74,97,10.47,SH,2024-09-30
35,tobelo,1.726284,127.9999457,26.17,82,100,0.62,ID,2024-09-30
36,port lincoln,-34.7211905,135.8592218,10.34,92,0,1.91,AU,2024-09-30
37,harper,41.3624875,-92.0510088,28.89,41,0,3.22,US,2024-09-30
38,saint-pierre,48.3832725,7.4718731,16.81,68,100,3.78,FR,2024-09-30
39,longyearbyen,78.2231558,15.6463656,-0.85,93,75,4.12,NO,2024-09-30
40,san fernando,36.4643934,-6.198203,22.85,71,4,5.59,ES,2024-09-30
41,taiohae,-8.899131,-140.15592044103448,22.78,73,5,7.52,FR,2024-09-30
42,margaret river,-33.9531776,115.0769369,9.78,94,100,2.34,AU,2024-09-30
43,edinburgh of the seven seas,-37.0675894,-12.3108303,13.23,86,10,6.66,SH,2024-09-30
44,carauari,-4.8766426,-66.8961433,34.6,41,80,1.44,BR,2024-09-30
45,adamstown,-25.066667,-130.100205,19.25,68,92,3.08,PN,2024-09-30
46,al hufuf,25.3696585,49.5865224,30.12,66,0,1.54,SA,2024-09-30
47,invercargill,-46.4118465,168.3470632,9.45,84,100,2.24,NZ,2024-09-30
48,aykol,38.1751435,77.2132352,11.78,62,55,4.26,CN,2024-09-30
49,tanggu,29.1382556,101.5050673,10.38,95,99,1.42,CN,2024-09-30
50,stanley,-51.6950575,-57.8491693,2.62,58,100,9.74,FK,2024-09-30
51,haimen,31.8729183,121.1771295,23.89,88,96,3.74,CN,2024-09-30
52,papatowai,-46.5618677,169.470842,10.6,63,100,1.71,NZ,2024-09-30
53,iskateley,67.676239,53.129215,4.19,76,44,10.66,RU,2024-09-30
54,hawaiian paradise park,19.585022,-154.973145,27.64,74,75,4.12,US,2024-09-30
55,lebu,-37.6099644,-73.6559477,12.14,77,100,3.24,CL,2024-09-30
56,laibin,23.7532648,109.2169807,26.82,76,61,4.76,CN,2024-09-30
57,hammerfest,70.6413392,23.8360800591327,0.44,75,0,2.06,NO,2024-09-30
58,tabou,4.4194457,-7.3603666,24.74,89,97,4.04,CI,2024-09-30
59,vorgashor,67.581192,63.783737,3.31,74,99,12.97,RU,2024-09-30
60,dunedin,-45.8740984,170.5035755,9.89,85,100,1.34,NZ,2024-09-30
61,mahibadhoo,3.7572355,72.9689431887705,27.3,79,95,5.15,MV,2024-09-30
62,avarua,-21.2074736,-159.7708145,23.99,69,75,3.6,CK,2024-09-30
63,kailua-kona,19.641941,-155.996933,28.49,74,20,3.09,US,2024-09-30
64,ushuaia,-54.806115899999995,-68.3184972880496,-0.17,64,75,2.57,AR,2024-09-30
65,ribeira grande,37.8225227,-25.5194914,24.19,94,75,5.66,PT,2024-09-30
66,kushk,33.0556981,59.3417259,12.49,26,0,2.06,IR,2024-09-30
67,saipan,15.1909825,145.746743003024,25.11,89,40,2.06,US,2024-09-30
68,happy valley-goose bay,53.2964352,-60.3111895,14.29,47,40,1.54,CA,2024-09-30
69,borkum,53.5859584,6.691509519014289,13.04,91,100,14.85,DE,2024-09-30
70,matipo,-20.2896695,-42.3426599,23.75,61,97,2.38,BR,2024-09-30
71,ivdel',60.6973287,60.4172583,10.15,83,100,4.58,RU,2024-09-30
72,itororo,-15.1179764,-40.0680738,26.6,54,95,4.12,BR,2024-09-30
73,geraldton,-28.77035,114.6147159,7.09,93,0,2.06,AU,2024-09-30
74,talnakh,69.4939889,88.3907607,3.86,96,100,2.41,RU,2024-09-30
75,santa vitoria do palmar,-33.5198333,-53.3693967,23.95,76,100,3.11,BR,2024-09-30
76,bethel,60.7922222,-161.7558333,4.03,93,0,2.06,US,2024-09-30
77,fort st. john,56.2524039,-120.846943,8.94,40,75,7.2,CA,2024-09-30
78,magadan,59.5604768,150.7988617,1.67,61,100,3.05,RU,2024-09-30
79,osa,57.2829207,55.4602059,12.0,54,100,2.62,RU,2024-09-30
80,bilibino,68.0550305,166.4448515,-2.76,96,100,1.17,RU,2024-09-30
81,lorengau,-2.0329567,147.2789185,27.55,80,39,4.93,PG,2024-09-30
82,gisborne,-38.661326,178.0206487,11.22,80,100,2.81,NZ,2024-09-30
83,west island,-12.145866,96.84227540282865,26.03,94,75,5.66,AU,2024-09-30
84,'aqrah,36.7304865,43.8748927,23.29,23,0,1.75,IQ,2024-09-30
85,albany,42.6511674,-73.754968,25.42,67,75,0.89,US,2024-09-30
86,punta arenas,-53.1625688,-70.907822,4.16,87,100,12.35,CL,2024-09-30
87,igarka,67.4566185,86.5308425,4.91,96,100,4.04,RU,2024-09-30
88,tezu,27.9254195,96.1647135,23.05,96,67,1.55,IN,2024-09-30
89,puerto natales,-51.7262003,-72.5059982,6.32,56,75,12.86,CL,2024-09-30
90,maintirano,-18.0608947,44.023951,24.8,78,0,1.5,MG,2024-09-30
91,siwa oasis,29.2034664,25.5192273,25.6,42,0,7.32,EG,2024-09-30
92,mugia,43.1071193,-9.2181926,19.9,97,100,6.82,ES,2024-09-30
93,klyuchi,56.318218,160.842178,4.15,61,100,0.12,RU,2024-09-30
94,bichura,50.588627,107.599274,-1.42,60,68,2.41,RU,2024-09-30
95,vorkuta,67.5035662,64.0627028,3.73,74,99,12.73,RU,2024-09-30
96,barclayville,4.6803743,-8.2332721,24.57,91,100,3.07,LR,2024-09-30
97,kushuhum,47.71671,35.20981,19.17,33,100,4.42,UA,2024-09-30
98,ketchikan,55.3430696,-131.6466819,8.26,49,100,5.66,US,2024-09-30
99,petropavlovsk-kamchatsky,53.0199838,158.6471356,8.06,77,100,4.68,RU,2024-09-30
100,breaux bridge,30.2735323,-91.8992837,33.03,48,20,1.54,US,2024-09-30
101,newman,37.3139487,-121.0204222,33.73,13,0,2.74,US,2024-09-30
102,musoma,-1.4998186,33.8083018,22.08,66,46,2.39,TZ,2024-09-30
103,flying fish cove,-10.4213344,105.674413,26.24,88,100,5.66,AU,2024-09-30
104,prestea,5.4336458,-2.1423648,23.1,96,45,1.64,GH,2024-09-30
105,midvagur,62.0491394,-7.189202,8.51,87,75,4.63,FO,2024-09-30
106,alvaraes,-3.2155787,-64.8148327,31.03,42,73,2.9,BR,2024-09-30
107,sussex,43.1339001,-88.2220372,26.64,63,40,4.12,US,2024-09-30
108,blackmans bay,-43.004684,147.3179857,13.25,59,31,0.89,AU,2024-09-30
109,codrington,51.508188,-2.3936619,11.66,85,58,3.13,GB,2024-09-30
110,adrar,27.8733807,-0.2874884,35.12,18,0,4.12,DZ,2024-09-30
111,vadso,70.22671985,29.78277929931153,2.11,60,20,8.23,NO,2024-09-30
112,talara,-4.5796872,-81.2718335,24.42,78,0,5.14,PE,2024-09-30
113,kralendijk,12.1472869,-68.2740206,32.03,62,75,4.63,NL,2024-09-30
114,hauterive,48.4774049,0.1989853,13.31,83,100,5.77,FR,2024-09-30
115,north bend,47.4957757,-121.784889,18.69,55,23,1.34,US,2024-09-30
116,lompoc,34.6391501,-120.4579409,25.23,60,3,5.14,US,2024-09-30
117,tofol,5.326022,163.0087193,29.61,71,95,8.13,FM,2024-09-30
118,labrador city,52.9422944,-66.9177291,13.98,48,75,2.57,CA,2024-09-30
119,bardai,21.3549506,17.0005053,27.63,17,4,2.78,TD,2024-09-30
120,kalengwa,-13.4669084,25.0030652,22.04,38,66,0.72,ZM,2024-09-30
121,mount gambier,-37.8246698,140.7820067624113,9.74,98,36,1.96,AU,2024-09-30
122,amursk,50.2299352,136.9014652,4.48,80,100,2.29,RU,2024-09-30
123,tiksi,71.636604,128.868546,-6.65,94,100,1.52,RU,2024-09-30
124,nuuk,64.175029,-51.7355386,1.65,100,100,5.81,GL,2024-09-30
125,puerto carreno,6.1879711,-67.4894667,32.99,52,40,2.06,CO,2024-09-30
126,delta,38.7436121,-108.0729172,30.01,12,0,3.66,US,2024-09-30
127,georgetown,6.8137426,-58.1624465,32.99,62,40,5.14,GY,2024-09-30
128,thompson,55.743347,-97.863464,10.1,93,100,3.6,CA,2024-09-30
129,katabu,10.6948039,7.511558,21.78,93,100,3.51,NG,2024-09-30
130,lazaro cardenas,20.225,-97.5931,29.13,66,16,2.74,MX,2024-09-30
131,ust-nera,64.566376,143.237839,-4.84,84,92,1.32,RU,2024-09-30
132,san juan,18.465299,-66.116666,31.89,70,40,4.63,US,2024-09-30
133,musay'id,34.8608909,37.3342629,18.73,81,0,5.76,SY,2024-09-30
134,kenai,60.5544444,-151.258333,8.34,71,0,7.2,US,2024-09-30
135,oudtshoorn,-33.5902954,22.204206,7.58,73,25,2.61,ZA,2024-09-30
136,badger,42.614418,-94.1461643,29.38,34,0,5.66,US,2024-09-30
137,lerwick,60.1531357,-1.1427296,11.23,87,97,5.74,GB,2024-09-30
138,wailua homesteads,22.0580742,-159.3691081,25.59,84,40,6.17,US,2024-09-30
139,porto novo,6.4990718,2.6253361,25.19,85,71,3.55,BJ,2024-09-30
140,puerto ayora,-0.7471674,-90.3134198,21.78,91,97,4.92,EC,2024-09-30
141,san vicente de canete,-13.077767,-76.3874465,17.75,81,87,3.95,PE,2024-09-30
142,college,45.32664695,-75.83855656986515,23.95,56,0,4.02,CA,2024-09-30
143,naantali,60.4688687,22.0291149,1.26,100,0,1.03,FI,2024-09-30
144,bath,51.3813864,-2.3596963,12.24,86,58,7.56,GB,2024-09-30
145,pathein,16.783333,94.733333,26.75,90,100,2.82,MM,2024-09-30
146,constantia,44.1767161,28.6507598,9.47,90,100,14.3,RO,2024-09-30
147,susuman,62.779732,148.15361,-4.43,71,11,1.12,RU,2024-09-30
148,birao,10.2961965,22.7809907,22.59,86,100,2.4,CF,2024-09-30
149,kodiak,57.79,-152.4072222,8.73,87,100,10.29,US,2024-09-30
150,enewetak,11.3408906,162.3245486,29.05,74,81,7.12,MH,2024-09-30
151,wladyslawowo,54.7796139,18.4137851,8.91,46,78,7.11,PL,2024-09-30
152,kapa'a,-33.928992,18.417396,10.75,67,40,2.57,ZA,2024-09-30
153,mohr,27.5514645,52.8821254,26.15,73,0,1.43,IR,2024-09-30
154,hasaki,35.7529706,140.8201321,23.66,89,100,6.73,JP,2024-09-30
155,rongelap,11.16290265,166.8943032722801,28.26,76,100,4.89,MH,2024-09-30
156,lethem,3.3749987,-59.7958674,33.0,49,100,0.83,GY,2024-09-30
157,pemangkat,1.156069,108.97129192715386,25.39,84,100,1.56,ID,2024-09-30
158,loreto,43.439498,13.6070214,16.46,73,6,1.31,IT,2024-09-30
159,bargara,-24.8154799,152.4630414,20.32,81,93,7.17,AU,2024-09-30
160,ola,35.0323119,-93.2232345,30.59,37,48,1.53,US,2024-09-30
161,dali,25.6802435,100.3001222,17.2,89,100,1.22,CN,2024-09-30
162,keflavik,63.9997694,-22.5565373,3.24,81,75,2.06,IS,2024-09-30
163,chonchi,-42.6239756,-73.7724416,9.73,53,88,2.19,CL,2024-09-30
164,archangelos,36.2154661,28.1173802,22.99,58,0,6.15,GR,2024-09-30
165,fort bragg,35.140311,-79.15414649804102,30.71,66,100,3.09,US,2024-09-30
166,howard springs,-12.4969791,131.0470011,25.95,85,57,2.31,AU,2024-09-30
167,sisimiut,66.9371906,-53.6664816,4.62,86,100,0.43,GL,2024-09-30
168,praia da vitoria,38.739237599999996,-27.156264396780458,23.4,78,40,5.11,PT,2024-09-30
169,portland,45.5202471,-122.674194,22.16,45,11,3.58,US,2024-09-30
170,qaqortoq,60.718202,-46.0385214,3.67,98,100,2.09,GL,2024-09-30
171,mount pearl,47.518910500000004,-52.814475267278404,14.03,89,100,3.09,CA,2024-09-30
172,malango,-2.9626669,119.9001019,18.92,93,100,1.02,ID,2024-09-30
173,sitka,57.0524973,-135.337612,11.9,54,100,10.29,US,2024-09-30
174,nemuro,43.3301154,145.5829068,16.94,98,100,5.6,JP,2024-09-30
175,valdivia,-39.8141262,-73.2459859,12.05,64,100,2.78,CL,2024-09-30
176,carnarvon,-24.8826131,113.6576486,18.73,74,0,5.75,AU,2024-09-30
177,xilin hot,43.9312058,116.0789127,0.64,89,100,1.72,CN,2024-09-30
178,tazacorte,28.642858,-17.9326028,22.38,90,20,6.17,ES,2024-09-30
179,puerto gaitan,6.2261784,-71.4326372,33.95,43,53,3.2,CO,2024-09-30
180,san patricio,27.9695325,-97.7731720386266,35.1,28,0,1.53,US,2024-09-30
181,tete,-16.1603989,33.5871474,34.05,21,0,3.6,MZ,2024-09-30
182,parthenay,46.6481266,-0.2472687,14.62,89,100,4.16,FR,2024-09-30
183,argo,33.6882155,-86.50140447889957,26.01,62,70,0.89,US,2024-09-30
184,santa croce camerina,36.827897,14.5255384,18.82,82,0,1.54,IT,2024-09-30
185,picui,-6.5106721,-36.3492736,26.06,54,93,9.5,BR,2024-09-30
186,la foa,-21.7096941,165.8259295,22.54,77,0,0.9,FR,2024-09-30
187,bizerte,37.2720905,9.8708565,21.99,60,0,4.12,TN,2024-09-30
188,east london,-33.0191604,27.8998573,12.72,56,31,10.14,ZA,2024-09-30
189,ilulissat,69.2197127,-51.0986385,1.38,96,100,1.99,GL,2024-09-30
190,kirovsk,59.8813954,30.9855331,4.01,77,48,0.29,RU,2024-09-30
191,puerto lempira,15.2656275,-83.7740635,30.04,66,40,4.12,HN,2024-09-30
192,al jawf,24.1985492,23.2938969,26.91,36,0,4.03,LY,2024-09-30
193,visby,57.6379361,18.297982,4.99,81,9,2.06,SE,2024-09-30
194,west bay,45.3721337,-64.3945712,19.69,56,3,6.31,CA,2024-09-30
195,bairnsdale,-37.8254509,147.6304752,6.11,96,0,1.79,AU,2024-09-30
196,puerto baquerizo moreno,-0.902599,-89.610191,22.81,78,100,6.17,EC,2024-09-30
197,belyy yar,53.596436,91.382362,10.92,50,0,6.0,RU,2024-09-30
198,port alfred,-33.5981844,26.8914772,10.03,80,49,3.58,ZA,2024-09-30
199,tolanaro,-25.0296943,46.9903888,23.88,78,0,8.23,MG,2024-09-30
200,cranbrook,49.5107477,-115.7672772,11.07,35,40,2.57,CA,2024-09-30
201,sarandi del yi,-33.3442144,-55.6313253,25.75,70,99,4.28,UY,2024-09-30
202,sao tome,0.3389242,6.7313031,25.95,81,51,3.54,ST,2024-09-30
203,quellon,-43.1200305,-73.6203025,7.08,58,68,3.4,CL,2024-09-30
204,villa sandino,11.9469184,-85.9496636,25.09,94,100,2.42,NI,2024-09-30
205,kardla,58.99521045,22.745928753411672,7.7,60,0,2.22,EE,2024-09-30
206,malindi,-3.2165987,40.1165933,25.11,78,20,0.0,KE,2024-09-30
207,anadyr,64.7316875,177.5060925,6.93,93,75,7.0,RU,2024-09-30
208,puerto san carlos,-12.6607539,-63.5500203,35.45,35,80,2.99,BO,2024-09-30
209,hamilton,43.2560802,-79.8728583,21.9,82,75,5.66,CA,2024-09-30
210,clear lake,43.1370751,-93.3813637,28.67,40,0,6.89,US,2024-09-30
211,wau,7.7001398,27.9909335,21.89,94,69,1.42,SS,2024-09-30
212,cessnock,-32.8316667,151.3511111,9.96,95,0,0.89,AU,2024-09-30
213,conde,-11.8129758,-37.6138705,24.86,63,2,4.44,BR,2024-09-30
214,yuzhno-kurilsk,44.0270756,145.8613722,16.76,98,100,3.81,RU,2024-09-30
215,sondrio,46.1713553,9.8734274,12.73,93,5,0.95,IT,2024-09-30
216,mejit,10.28434145,170.8698842802093,26.63,79,93,2.17,MH,2024-09-30
217,wagar,33.8567672,75.2613473,16.02,41,0,2.43,IN,2024-09-30
218,kununurra,-15.7730916,128.738839,19.95,88,0,2.06,AU,2024-09-30
219,kingston,17.9712148,-76.7928128,32.12,79,40,3.09,JM,2024-09-30
220,acajutla,13.5897967,-89.8297601,27.57,78,100,1.79,SV,2024-09-30
221,rutana,-3.9263608,29.990574,16.91,83,99,1.7,BI,2024-09-30
222,reserve,39.976147999999995,-95.56505944468024,30.45,38,0,1.79,US,2024-09-30
223,batesville,35.769799,-91.6409722,27.75,62,100,0.45,US,2024-09-30
224,fauske,67.23671525,15.784422075480048,0.35,96,100,5.15,NO,2024-09-30
225,krasnovishersk,60.4017837,57.0767045,9.19,86,99,4.07,RU,2024-09-30
226,edd,13.930794,41.690461,31.78,68,4,1.6,ER,2024-09-30
227,arraial do cabo,-22.9662839,-42.024427,24.99,69,0,10.8,BR,2024-09-30
228,tan-tan,28.437553,-11.098664,21.36,87,19,3.51,MA,2024-09-30
229,daru,-9.069901,143.210029,24.8,75,42,5.53,PG,2024-09-30
230,pacific grove,36.6211149,-121.917794,28.96,78,0,4.12,US,2024-09-30
231,lihue,21.9769622,-159.3687721,25.85,80,40,6.17,US,2024-09-30
232,vilyuysk,63.754082,121.626549,-0.87,95,100,3.2,RU,2024-09-30
233,pustoshka,56.3350632,29.3684565,6.4,63,100,4.38,RU,2024-09-30
234,eureka,40.7906871,-124.1673746,19.55,65,2,0.89,US,2024-09-30
235,banamba,13.5485166,-7.446532,29.13,59,65,3.07,ML,2024-09-30
236,xiongzhou,38.9786266,116.0727682,10.95,74,67,2.58,CN,2024-09-30
237,vila franca do campo,37.7171624,-25.4335352,24.23,94,48,4.74,PT,2024-09-30
238,shush,32.2003687,48.2489839,29.13,48,6,2.69,IR,2024-09-30
239,goniri,11.47449355,13.617426543622592,30.11,46,47,1.97,NG,2024-09-30
240,boke,51.730966,8.5618796,12.83,88,40,5.14,DE,2024-09-30
241,yaren,-0.5471014,166.9164002,28.47,74,20,6.28,NR,2024-09-30
242,golakganj,26.1047528,89.8252916,26.22,90,30,1.05,IN,2024-09-30
243,tucurui,-3.766334,-49.6663654,36.6,29,51,1.43,BR,2024-09-30
244,asbach,50.6671382,7.4245809,13.74,95,100,4.84,DE,2024-09-30
245,banska bystrica,48.7384028,19.1573494,5.94,76,1,1.5,SK,2024-09-30
246,awjilah,29.140278,21.2975,24.08,49,0,7.06,LY,2024-09-30
247,mil'kovo,54.690411,158.609879,3.89,82,100,2.11,RU,2024-09-30
248,kerikeri,-35.2272607,173.9491061,13.15,93,100,4.24,NZ,2024-09-30
249,at taj,24.2173161,23.2987377,26.91,36,0,4.03,LY,2024-09-30
250,la sarre,48.8000956,-79.2010223,17.92,51,0,3.38,CA,2024-09-30
251,moab,38.5738096,-109.5462146,33.6,17,0,4.05,US,2024-09-30
252,la'ie,21.6438449,-157.924442,27.25,83,38,1.79,US,2024-09-30
253,ar rumaythah,14.100535,44.168915,23.31,65,53,0.17,YE,2024-09-30
254,ha'il,27.5208716,41.6985992,31.05,15,0,3.09,SA,2024-09-30
255,fuvahmulah,-0.2948408,73.4240650441918,27.74,78,18,5.09,MV,2024-09-30
256,vernon,49.0917814,1.4886571,14.75,93,100,7.43,FR,2024-09-30
257,inyati,-18.2169194,32.2391107,19.84,26,6,0.67,ZW,2024-09-30
258,hemsby,52.6940106,1.6831984920127332,13.38,93,100,8.18,GB,2024-09-30
259,tilcara,-23.5767908,-65.393396,27.1,3,84,8.34,AR,2024-09-30
260,hotan,37.1126842,79.9111626,12.94,52,10,0.69,CN,2024-09-30
261,vila velha,-20.3297037,-40.2920174,24.97,89,40,4.12,BR,2024-09-30
262,irymple,-34.235623,142.1704328,7.3,81,5,3.15,AU,2024-09-30
263,luwuk,-0.9528231,122.7880198,22.41,81,67,1.62,ID,2024-09-30
264,okondja,-0.655465,13.682713,23.39,88,97,0.9,GA,2024-09-30
265,byron bay,-28.6483333,153.6177778,15.85,89,65,5.06,AU,2024-09-30
266,chistopol',55.3714831,50.6367311,13.81,43,90,2.68,RU,2024-09-30
267,tura,47.3900474,0.6889268,15.32,77,0,5.14,FR,2024-09-30
268,camalu,30.8423546,-116.0627449,22.91,62,0,3.87,MX,2024-09-30
269,jackson,32.3086744,-90.1983063,28.86,57,75,3.09,US,2024-09-30
270,san antonio de pale,-1.4046406,5.63255,24.94,83,92,4.73,GQ,2024-09-30
271,kittila,67.651985,24.9095086,2.06,75,20,2.57,FI,2024-09-30
272,island harbour,49.6,-54.3,12.03,89,100,5.95,CA,2024-09-30
273,colonia,50.938361,6.959974,15.49,86,75,4.63,DE,2024-09-30
274,port mathurin,-19.6808372,63.422113,22.51,80,0,9.39,MU,2024-09-30
275,greenville,34.851354,-82.3984882,26.17,66,100,4.63,US,2024-09-30
276,kupang,-10.1632209,123.6017755,26.23,89,7,1.54,ID,2024-09-30
277,buenaventura,40.1766024,-4.8498756,20.08,30,47,2.1,ES,2024-09-30
278,udachny,66.411768,112.2517294,-0.26,99,100,1.39,RU,2024-09-30
279,zaozersk,69.400925,32.441334,1.55,75,5,8.2,RU,2024-09-30
280,bellinzona,46.1920538,9.0205888,14.93,86,6,0.45,CH,2024-09-30
281,dapa,9.7569104,126.051588,27.35,79,100,3.9,PH,2024-09-30
282,kilindoni,-7.9113546,39.6671536,24.91,77,34,4.57,TZ,2024-09-30
283,yagry,64.6174261,39.8261155,5.3,76,7,7.09,RU,2024-09-30
284,arteche,11.6821151,124.8624062,26.64,84,100,2.85,PH,2024-09-30
285,xiulin,24.1201557,121.6260891,22.64,88,100,2.84,TW,2024-09-30
286,xiaoweizhai,26.2292619,107.512855,16.35,91,100,3.31,CN,2024-09-30
287,guerrero negro,27.9709506,-114.036389,24.13,59,99,4.31,MX,2024-09-30
288,pagar alam,-4.0209526,103.2501603,20.57,95,82,0.66,ID,2024-09-30
289,la mira,18.0349695,-102.326584,28.08,78,34,2.58,MX,2024-09-30
290,puerto armuelles,8.2725603,-82.8604458,24.63,88,100,0.45,PA,2024-09-30
291,san carlos de bariloche,-41.1334421,-71.3098425,9.31,53,40,11.83,AR,2024-09-30
292,banda aceh,5.5528455,95.3192908,26.27,85,79,2.39,ID,2024-09-30
293,laojunmiao,33.384109,114.890577,13.65,77,97,4.95,CN,2024-09-30
294,nagqu,31.4786233,92.0498064,3.29,52,2,1.2,CN,2024-09-30
295,qujing,25.4936418,103.7943084,9.74,93,100,7.08,CN,2024-09-30
296,ambalavao,-21.831986,46.9374742,15.99,93,12,1.97,MG,2024-09-30
297,hithadhoo,1.7959425,73.38755195657038,27.34,80,100,4.76,MV,2024-09-30
298,fort stockton,30.891901,-102.883662,33.18,21,0,4.12,US,2024-09-30
299,pailon,-12.7011058,-65.9685362,35.67,34,94,4.0,BO,2024-09-30
300,volodymyrets',51.4197839,26.1392078,7.34,82,100,5.36,UA,2024-09-30
301,phillip island,-38.5074036,145.18848037908447,11.02,86,1,7.92,AU,2024-09-30
302,tukzar,35.9567816,66.428255,14.68,56,76,0.66,AF,2024-09-30
303,prado,41.9203967,-5.4203949,20.04,47,4,4.43,ES,2024-09-30
304,chake chake,-5.2440346,39.7685075,23.46,88,62,2.88,TZ,2024-09-30
305,okuta,9.2192002,3.1966797,23.64,94,28,1.65,NG,2024-09-30
306,buala,-8.145546,159.5930366,26.97,82,15,2.43,SB,2024-09-30
307,mawu,34.430659,104.917589,3.13,63,98,1.42,CN,2024-09-30
308,ma'an,30.2,35.7333329,19.17,56,0,4.18,JO,2024-09-30
309,freeport,42.2966861,-89.6212271,28.06,59,40,2.06,US,2024-09-30
310,peace river,56.2337111,-117.2910839,11.58,43,0,6.17,CA,2024-09-30
311,ploudalmezeau,48.5410278,-4.6576826,12.32,91,100,4.82,FR,2024-09-30
312,sucre,-19.0477251,-65.2594306,26.08,19,8,5.85,BO,2024-09-30
313,kourou,5.1581197,-52.64263,28.56,69,5,4.37,FR,2024-09-30
314,nova sintra,14.871066,-24.6956479,25.26,84,4,3.81,CV,2024-09-30
315,shahr-e babak,30.1191968,55.1243149,18.77,39,2,1.69,IR,2024-09-30
316,mitu,36.1986,46.0868,13.59,39,0,2.39,IR,2024-09-30
317,semnan,35.5855682,53.392129384753915,18.08,36,59,1.11,IR,2024-09-30
318,blackwater,38.9802996,-92.99075,29.86,50,0,0.91,US,2024-09-30
319,itapetininga,-23.588607,-48.048326,32.99,22,1,1.15,BR,2024-09-30
320,tralee,52.2692835,-9.7054085,9.96,93,33,2.23,IE,2024-09-30
321,sadjoavato,-12.633384,49.348969,21.58,87,46,4.33,MG,2024-09-30
322,touros,-5.1998625,-35.4595051,25.32,73,27,8.11,BR,2024-09-30
323,bintulu,3.1874261,113.0472803,25.23,94,40,2.24,MY,2024-09-30
324,brandon,46.35270835,4.577608667704116,14.59,83,100,1.43,FR,2024-09-30
325,viqueque,-8.8671522,126.3643974,22.91,90,49,1.44,TL,2024-09-30
326,khorixas,-20.37384,14.960421,16.3,39,0,2.83,NA,2024-09-30
327,horta,38.5368032,-28.630109,24.58,94,40,6.69,PT,2024-09-30
328,sao francisco,37.7790262,-122.419906,32.48,38,0,2.49,US,2024-09-30
329,chodavaram,17.8296788,82.9344845,25.48,92,43,1.07,IN,2024-09-30
330,cobram,-35.9197782,145.6484379,6.6,92,0,2.48,AU,2024-09-30
331,parchim,53.4258455,11.8475244,10.55,57,35,8.41,DE,2024-09-30
332,bel ombre,-4.6193716,55.4112979,26.63,83,40,5.14,SC,2024-09-30
333,korla,41.7238743,86.173541,13.41,50,53,1.52,CN,2024-09-30
334,saldanha,-32.9977778,17.9455556,7.15,56,3,4.94,ZA,2024-09-30
335,narvik,68.28988385,17.086538711321808,1.96,90,100,8.48,NO,2024-09-30
336,itoman,26.106017,127.686066,27.99,91,40,4.63,JP,2024-09-30
337,port elizabeth,-33.9617051,25.6207519,10.06,87,75,9.77,ZA,2024-09-30
338,nar'yan-mar,67.6380175,53.0071044,4.2,76,34,10.7,RU,2024-09-30
339,gadzhiyevo,69.250359,33.315281,2.16,75,8,8.7,RU,2024-09-30
340,kuta,-8.7278354,115.1730049,26.97,94,40,5.66,ID,2024-09-30
341,pisco,-13.7099813,-76.2029793,17.94,77,0,4.63,PE,2024-09-30
342,cockburn town,21.4607723,-71.1399956,29.16,71,7,4.46,TC,2024-09-30
343,nuku'alofa,-21.1343401,-175.201808,23.19,78,75,5.66,TO,2024-09-30
344,kavieng,-2.573474,150.795224,28.05,78,32,5.18,PG,2024-09-30
345,douentza,15.0068749,-2.9529649,34.81,31,3,1.89,ML,2024-09-30
346,tuni,17.3614675,82.5467956,25.5,93,100,3.47,IN,2024-09-30
347,christchurch,-43.530955,172.6366455,12.18,84,95,4.12,NZ,2024-09-30
348,markovo,42.3473399,25.2238201,11.41,68,95,2.31,BG,2024-09-30
349,queenstown,-45.0321923,168.661,3.45,89,100,1.26,NZ,2024-09-30
350,moapa valley,36.5805309,-114.470267,38.14,9,0,0.31,US,2024-09-30
351,bangassou,4.743526,22.8232963,21.11,97,96,0.97,CF,2024-09-30
352,al bayda,32.7609529,21.7577175,16.98,73,23,7.64,LY,2024-09-30
353,ghormach,35.7300994,63.7809312,15.62,31,8,0.66,AF,2024-09-30
354,tual,-5.6389933,132.7429249,27.39,78,100,9.96,ID,2024-09-30
355,solnechnyy,50.723808,136.64006,1.83,89,100,0.67,RU,2024-09-30
356,santa elena de uairen,4.5958694,-61.1110307,27.27,51,92,1.9,VE,2024-09-30
357,amga,60.894218,131.97998,0.33,99,100,2.85,RU,2024-09-30
358,calama,-22.4623917,-68.9272181,24.22,9,0,9.26,CL,2024-09-30
359,poronaysk,49.2216366,143.1015759,14.17,88,100,2.59,RU,2024-09-30
360,kristiansund,63.216819400000006,7.545258996501891,11.36,62,75,3.09,NO,2024-09-30
361,primero de mayo,20.2954701,-97.2794388,29.26,66,33,2.95,MX,2024-09-30
362,verkhov'ye,54.759496,36.6786273,8.64,77,94,6.7,RU,2024-09-30
363,dubbo,-32.2478964,148.6026502,8.09,81,20,4.63,AU,2024-09-30
364,mgandu,-4.5086564,38.0830353,21.62,86,86,2.56,TZ,2024-09-30
365,vranov nad toplou,48.8891513,21.6822318,6.28,76,8,3.91,SK,2024-09-30
366,nenjiang,49.1734835,125.231228,2.34,58,0,1.83,CN,2024-09-30
367,tamanrasset,22.7854543,5.5324465,25.9,34,40,1.03,DZ,2024-09-30
368,port hueneme,34.1477558,-119.1951559,29.68,71,0,3.6,US,2024-09-30
369,baruun-urt,46.68094,113.28347783638328,-0.27,69,69,3.43,MN,2024-09-30
370,nava,43.3582216,-5.5056766,16.94,99,47,0.83,ES,2024-09-30
371,cassilandia,-19.1128242,-51.7345354,36.45,18,65,4.18,BR,2024-09-30
372,salahonda,2.039908,-78.6581414,26.69,75,36,5.38,CO,2024-09-30
373,martapura,-3.4086465,114.848837,25.08,100,100,0.0,ID,2024-09-30
374,amahai,-3.3081717,129.0010636,24.29,91,100,1.89,ID,2024-09-30
375,kuzovatovo,53.5408,47.685,13.05,34,61,1.2,RU,2024-09-30
376,kantagi,43.5268585,68.5861978,16.53,20,99,3.09,KZ,2024-09-30
377,surazh,53.0131501,32.3931633,11.17,64,100,8.22,RU,2024-09-30
378,la paz,-16.4955455,-68.1336229,18.5,36,40,3.6,BO,2024-09-30
379,cargados carajos,-16.2411839,59.59153675674837,23.47,80,14,8.93,MU,2024-09-30
380,twon-brass,4.3104558,6.2410539,26.19,85,41,4.85,NG,2024-09-30
381,chegdomyn,51.134487,133.035553,-0.17,94,17,1.32,RU,2024-09-30
382,howrah,22.5736296,88.3251045,30.97,84,40,3.09,IN,2024-09-30
383,laguna,-28.4837443,-48.7816572,22.52,73,0,12.38,BR,2024-09-30
384,souillac,44.8980172,1.46943,14.98,87,99,0.94,FR,2024-09-30
385,byndoor,13.8662536,74.6270036,26.66,92,39,2.08,IN,2024-09-30
386,kutum,14.2108373,24.649584,26.67,46,41,1.63,SD,2024-09-30
387,kyshtovka,56.55957,76.624588,9.68,79,87,3.66,RU,2024-09-30
388,moissala,8.3380154,17.7652816,21.77,93,100,1.05,TD,2024-09-30
389,am timan,11.0396368,20.2826429,26.13,80,97,2.22,TD,2024-09-30
390,goksun,38.0214898,36.494634,14.74,81,16,3.4,TR,2024-09-30
391,new norfolk,-42.7801998,147.0615332,12.75,74,70,5.04,AU,2024-09-30
392,kapoeta,4.7691017,33.58997,25.88,60,95,2.07,SS,2024-09-30
393,odda,40.095654,9.162334,15.22,64,0,0.9,IT,2024-09-30
394,yelizovo,53.1864972,158.3836712,8.1,61,75,2.0,RU,2024-09-30
395,san isidro,38.1707587,-0.8387399,22.4,74,0,1.16,ES,2024-09-30
396,santa cruz,28.469648,-16.2540884,23.41,84,75,8.75,ES,2024-09-30
397,mlandizi,-6.7169041,38.7388981,22.53,82,43,1.31,TZ,2024-09-30
398,luderitz,-26.6500086,15.157266,13.46,54,0,11.14,NA,2024-09-30
399,wainwright,70.6369444,-160.038333,3.64,73,12,4.83,US,2024-09-30
400,neftegorsk,52.80381,51.163864,14.47,34,6,2.76,RU,2024-09-30
401,didwana,27.4029944,74.577845,29.27,41,1,2.67,IN,2024-09-30
402,mweka,-4.8476882,21.5612,24.05,70,43,1.58,CD,2024-09-30
403,aleksandrovsk-sakhalinskiy,50.8974983,142.1591667,8.66,94,100,3.7,RU,2024-09-30
404,namibe,-15.195064,12.1458085,18.15,89,58,2.71,AO,2024-09-30
405,ulladulla,-35.3621503,150.4751713,10.45,88,1,1.88,AU,2024-09-30
406,shingu,33.7241003,135.9930029,21.06,78,90,2.12,JP,2024-09-30
407,vilyuchinsk,52.931834,158.405383,8.17,76,100,2.88,RU,2024-09-30
408,scottburgh,-30.286041,30.754365,14.47,85,95,1.7,ZA,2024-09-30
409,coronel dorrego,-37.9762661,-57.6021392,19.94,84,75,2.06,AR,2024-09-30
410,hermanus,-34.4175,19.2361111,8.8,61,73,3.13,ZA,2024-09-30
411,paidha,2.4166898,30.9853389,17.2,87,97,1.5,UG,2024-09-30
412,nelson bay,-32.7218138,152.1440889,13.23,91,3,3.13,AU,2024-09-30
413,uturoa,-16.74372575,-151.45941213237853,24.61,77,10,5.52,FR,2024-09-30
414,kentau,43.5169567,68.500842,16.85,20,100,2.15,KZ,2024-09-30
415,riyadh,24.638916,46.7160104,31.24,17,0,5.74,SA,2024-09-30
416,randfontein,-26.173611,27.694167,10.29,15,0,6.03,ZA,2024-09-30
417,pacasmayo,-7.4028958,-79.5684847,20.13,74,19,7.44,PE,2024-09-30
418,cova figueira,14.889935,-24.2941143,21.29,86,1,3.33,CV,2024-09-30
419,maridi,4.9143633,29.4645282,20.64,95,100,1.36,SS,2024-09-30
420,taman rajawali,3.6422343,101.55938598771088,26.64,95,74,0.89,MY,2024-09-30
421,ambon,47.5542438,-2.5566945,13.78,84,100,6.17,FR,2024-09-30
422,meadow lake,54.13026,-108.435059,10.99,46,20,10.8,CA,2024-09-30
423,elverum,60.97280245,11.734442073482581,4.12,99,85,1.96,NO,2024-09-30
424,saint-remy,48.3476386,6.8283249,14.54,78,100,5.46,FR,2024-09-30
425,cambria,37.7814392,-89.1192454,25.55,74,100,2.06,US,2024-09-30
426,alotau,-10.3060931,150.4464005,23.78,98,64,1.43,PG,2024-09-30
427,remire-montjoly,4.9050148,-52.2771642,32.0,62,0,6.17,FR,2024-09-30
428,al bawiti,28.35182,28.862992,26.67,43,0,5.39,EG,2024-09-30
429,baoro,5.694576,15.953318,20.39,93,84,1.88,CF,2024-09-30
430,ad dabbah,14.006301,44.066256,21.08,63,49,1.24,YE,2024-09-30
431,marsa alam,25.069992,34.893817,28.56,45,0,2.22,EG,2024-09-30
432,turpan,42.9400252,89.1840477,14.95,19,0,1.31,CN,2024-09-30
433,belmonte,39.5592831,-2.7038117,19.78,28,0,0.52,ES,2024-09-30
434,holualoa,19.6238149,-155.9536379,25.88,80,20,3.6,US,2024-09-30
435,utuado,18.2653557,-66.6999395,29.19,99,73,0.78,US,2024-09-30
436,buka,-5.23139085,154.6314813067239,27.21,81,95,3.83,PG,2024-09-30
437,kidal,18.4408358,1.4075395,37.01,17,70,5.0,ML,2024-09-30
438,batang,30.0101197,99.1123731,10.9,75,92,0.64,CN,2024-09-30
439,denov,38.2753782,67.8951071,17.95,52,6,2.96,UZ,2024-09-30
440,posse,-14.0835852,-46.3563185,32.08,17,32,5.03,BR,2024-09-30
441,lianhe,25.9362195,102.9971643,9.95,96,100,2.75,CN,2024-09-30
442,mont-dore,45.5749966,2.8094117,9.52,97,100,4.1,FR,2024-09-30
443,freetown,8.479004,-13.26795,25.9,83,98,2.92,SL,2024-09-30
444,prince rupert,54.3126572,-130.32549,8.69,81,100,15.43,CA,2024-09-30
445,moyale,3.5241898,39.0512683,23.3,54,65,1.5,ET,2024-09-30
446,aswan,24.091071,32.897306,31.65,27,0,2.57,EG,2024-09-30
447,ouesso,3.4298329,14.564614,21.55,98,74,1.35,CM,2024-09-30
448,porciuncula,-20.9612,-42.0367,27.83,54,39,3.86,BR,2024-09-30
449,mirny,62.541077,113.978584,2.76,97,100,5.38,RU,2024-09-30
450,golfito,8.6389291,-83.1684777,24.05,89,99,1.36,CR,2024-09-30
451,malanje,-9.5483991,16.3475335,23.33,54,80,3.1,AO,2024-09-30
452,ha tinh,18.3452745,105.9019482,26.04,90,74,1.25,VN,2024-09-30
453,sanshui,23.158687,112.8915006,26.66,75,0,2.39,CN,2024-09-30
454,wakkanai,45.4158108,141.6730309,19.14,81,90,11.79,JP,2024-09-30
455,tazovsky,67.4735321,78.7149206,4.73,70,100,7.87,RU,2024-09-30
456,kolonia,50.938361,6.959974,15.49,85,0,4.63,DE,2024-09-30
457,nova xavantina,-14.6794165,-52.351994,37.83,17,87,5.35,BR,2024-09-30
458,choibalsan,48.0688183,114.5241352,-1.85,52,19,4.01,MN,2024-09-30
459,sarmiento,-45.5867861,-69.0687743,7.0,42,67,2.77,AR,2024-09-30
460,cajamarca,-7.1566682,-78.517306,18.82,45,100,5.14,PE,2024-09-30
461,sur,33.2721211,35.1964023,24.66,70,0,2.59,LB,2024-09-30
462,kone,-21.0608439,164.8619054,22.4,81,1,0.69,FR,2024-09-30
463,fisterra,42.9064771,-9.263789,17.65,97,100,5.92,ES,2024-09-30
464,coyuca de benitez,17.0085956,-100.0872968,27.53,87,67,2.3,MX,2024-09-30
465,kibre mengist,5.8733621,38.9953839,14.64,95,100,0.95,ET,2024-09-30
466,astrakhan,46.3498308,48.0326203,14.9,51,0,5.0,RU,2024-09-30
467,corner brook,48.95317,-57.947388,13.91,81,100,2.49,CA,2024-09-30
468,gallivare,67.3,20.25,3.01,80,100,7.1,SE,2024-09-30
469,santo antonio do ica,-3.095443,-67.946279,34.48,38,62,0.86,BR,2024-09-30
470,floresville,29.1335781,-98.1561192,36.59,30,0,0.43,US,2024-09-30
471,nizhneangarsk,55.783573,109.571762,3.46,75,100,2.7,RU,2024-09-30
472,chokwe,-16.4547758,35.0129933,29.48,22,0,1.05,MW,2024-09-30
473,clearfield,40.800693,-94.4756885,28.07,58,0,3.85,US,2024-09-30
474,robertson,-33.802222,19.883611,7.89,75,39,1.5,ZA,2024-09-30
475,sao gabriel da cachoeira,-0.1249715,-67.0813855,30.76,70,20,2.06,BR,2024-09-30
476,marshfield,44.6688524,-90.1717987,25.25,60,75,5.14,US,2024-09-30
477,turbaco,10.3305871,-75.4127345,27.86,74,20,2.57,CO,2024-09-30
478,progreso,26.0922991,-97.9572242,36.16,32,0,1.79,US,2024-09-30
479,bubaque,11.29969595,-15.833543367212418,27.69,76,65,3.78,GW,2024-09-30
480,roma,41.8933203,12.4829321,19.05,57,0,1.03,IT,2024-09-30
481,karratha,-20.7370067,116.8478592,24.28,55,2,3.97,AU,2024-09-30
482,mollendo,-17.0292533,-72.0155447,16.95,83,95,3.85,PE,2024-09-30
483,kargasok,59.0598053,80.8708719,12.27,86,100,5.54,RU,2024-09-30
484,bowen,40.2333789,-91.0626375,29.03,43,4,0.91,US,2024-09-30
485,taybad,34.7401763,60.7755127,15.76,14,0,3.49,IR,2024-09-30
486,wolmaransstad,-27.200475,25.979925,6.24,28,0,4.49,ZA,2024-09-30
487,al muwayh,22.4365659,41.761935,28.48,35,66,2.8,SA,2024-09-30
488,flen,59.05,16.716667,5.73,81,20,2.06,SE,2024-09-30
489,acapulco de juarez,16.8680495,-99.8940182,25.19,83,88,2.21,MX,2024-09-30
490,noumea,-22.2745264,166.442419,23.36,99,2,1.27,FR,2024-09-30
491,dwarka,22.2471009,68.9742446,27.64,82,1,4.88,IN,2024-09-30
492,eyl,7.9806632,49.8187816,25.48,84,17,5.45,SO,2024-09-30
493,rio turbio,-51.5475941,-72.28251357712159,2.66,67,20,5.3,AR,2024-09-30
494,coquimbo,-29.9531928,-71.3379884,15.63,58,75,3.6,CL,2024-09-30
495,illizi,26.504191,8.479926,31.82,20,0,5.17,DZ,2024-09-30
496,boda,46.0808583,18.0478346,9.97,66,0,2.57,HU,2024-09-30
497,papao,12.6918922,-16.3791775,23.06,100,0,1.03,SN,2024-09-30
498,cruzeiro do sul,-29.5139742,-51.9917068,31.8,51,5,1.47,BR,2024-09-30
499,nykobing sjaelland,55.9233493,11.6689532,10.53,72,45,10.75,DK,2024-09-30
500,cooma,-36.23563,149.1264221,3.3,96,14,0.28,AU,2024-09-30
501,galveston,29.299328,-94.7945882,32.25,48,0,4.12,US,2024-09-30
502,myronivka,49.6583412,30.9824887,12.83,46,96,5.03,UA,2024-09-30
503,tidjikja,18.5545158,-11.4325834,34.56,21,100,3.32,MR,2024-09-30
504,karmaskaly,54.367451,56.168819,6.95,52,61,1.56,RU,2024-09-30
505,shakiso,5.7746802,38.9028468,14.26,98,83,1.17,ET,2024-09-30
506,bugana,29.256344,75.8332015,27.66,55,5,2.54,IN,2024-09-30
507,talakan,50.2947989,130.2826064,0.34,86,93,1.27,RU,2024-09-30
508,sandnessjoen,66.0215451,12.6317232,9.12,87,75,11.83,NO,2024-09-30
509,phan rang-thap cham,11.5769829,108.9865391,24.62,92,81,0.91,VN,2024-09-30
510,bonen,50.7259985,1.6118771,14.7,87,58,12.81,FR,2024-09-30
511,punta del este,-34.9632342,-54.9439981,21.09,94,100,2.57,UY,2024-09-30
512,robertsport,6.75257,-11.36695,25.72,86,100,2.74,LR,2024-09-30
513,egilsstadir,65.2620412,-14.4035258,0.94,80,75,1.54,IS,2024-09-30
514,totness,5.8771314,-56.3307762,29.3,70,56,4.77,SR,2024-09-30
515,chibougamau,49.9137407,-74.3713954,16.91,55,20,2.06,CA,2024-09-30
516,margate,51.3878174,1.3819699,13.88,81,84,0.45,GB,2024-09-30
517,bemidji,47.4785418,-94.8907869,20.66,39,0,11.32,US,2024-09-30
518,pader,11.0702661,122.5827653,23.56,82,100,0.81,PH,2024-09-30
519,ilhabela,-23.816628,-45.368685,22.54,83,2,5.28,BR,2024-09-30
520,vuktyl,63.844337,57.300171,5.21,76,52,4.37,RU,2024-09-30
521,ciudad lazaro cardenas,17.9594769,-102.198659,28.93,73,29,2.61,MX,2024-09-30
522,jinghong,22.0025515,100.7707274,22.81,100,100,0.49,CN,2024-09-30
523,westport,41.1414855,-73.3578955,22.53,69,0,5.14,US,2024-09-30
524,villa gesell,-37.255634,-56.9680922,15.89,94,100,3.93,AR,2024-09-30
525,wenling,28.3761941,121.3808408,23.55,94,5,3.34,CN,2024-09-30
526,vingt cinq,-10.3887066,56.6176598,25.98,70,100,8.19,MU,2024-09-30
527,am djarass,16.0662879,22.8350448,30.81,22,98,5.73,TD,2024-09-30
528,suar,42.7774075,-7.5789843,17.06,97,85,0.42,ES,2024-09-30
529,baukau,-8.4650462,126.4585621,22.84,79,56,2.51,TL,2024-09-30
530,hayma',15.4662,44.22663,20.68,40,35,4.19,YE,2024-09-30
531,pitimbu,-7.4728063,-34.811233,24.97,71,40,6.78,BR,2024-09-30
532,chandler,33.3061605,-111.84125,40.96,19,20,3.09,US,2024-09-30
533,fortuna,40.597407,-124.156034,19.6,55,0,2.57,US,2024-09-30
534,fort mcmurray,56.7291997,-111.3885221,12.73,43,100,6.69,CA,2024-09-30
535,norilsk,69.3498394,88.200517,4.02,96,100,3.79,RU,2024-09-30
536,antalaha,-14.9012302,50.2810433,22.37,87,85,3.4,MG,2024-09-30
537,riosucio,5.4209549,-75.7030623,21.62,77,84,0.08,CO,2024-09-30
538,samraong,14.1758059,103.5092331,24.09,99,100,1.06,KH,2024-09-30
539,kochkor-ata,41.0388256,72.4838993,15.67,27,75,1.34,KG,2024-09-30
540,taltal,-25.4078293,-70.4858424,17.42,68,53,3.6,CL,2024-09-30
541,parras de la fuente,25.4436602,-102.1782179,27.45,29,6,5.19,MX,2024-09-30
542,puerto deseado,-47.7516166,-65.9013234,7.24,30,99,6.36,AR,2024-09-30
543,as sulayyil,20.459722,45.574444,30.05,16,6,3.89,SA,2024-09-30
544,kayenta,36.7218463,-110.253872,29.1,14,12,4.68,US,2024-09-30
545,arar,30.9815531,41.0164788,26.06,24,0,0.0,SA,2024-09-30
546,paracatu,-17.2174056,-46.8707514,32.32,24,65,4.01,BR,2024-09-30
547,prescott,34.5399962,-112.468761,32.17,19,20,4.47,US,2024-09-30
548,quetta,30.1957677,67.0172447,21.19,32,0,0.98,PK,2024-09-30
549,weno,7.4401133999999995,151.85698576823683,26.47,89,75,4.12,FM,2024-09-30
550,thinadhoo,0.5326429,72.99714160821568,27.41,79,98,4.65,MV,2024-09-30
551,shahr-e kord,32.3257366,50.8497369,13.13,51,0,1.84,IR,2024-09-30
552,gaalkacyo,6.769726,47.430826,26.71,63,61,6.58,SO,2024-09-30
